,city,latitude,longitude
0,"Collierville, TN",35.042036,-89.6645266
1,"Canonsburg, PA",40.2625702,-80.1872797
2,"Bentonville, AR",36.3728538,-94.2088172
3,"Rolling Meadows, IL",42.0841936,-88.0131275
4,"Roy, UT",41.1715361,-112.0273739
5,"Archbald, PA",41.4948038,-75.5368521
6,"Morrisville, NC",35.824341,-78.8300321
7,"Schwieberdingen, BW, Germany",48.8749991,9.0778484
8,"Gainesville, FL",29.6519684,-82.3249846
9,"Osaka, OS, Japan",34.7001138,135.5001559
10,"Shreveport, LA",32.4707862,-93.7559378
11,"Houston, TX",29.7589382,-95.3676974
12,"Martinsburg, WV",39.4562528,-77.9639604
13,"Clifton, NJ",40.8584328,-74.1637553
14,"Lynn, MA",42.466763,-70.9494939
15,"Des Moines, IA",41.5910323,-93.6046655
16,"Baltimore, MD",39.2908816,-76.610759
17,"Hazelwood, MO",38.7761446,-90.3715909
18,"Neuquen, NQ, Argentina",-34.0,-64.0
19,"Kazan, TT, Russia",60.0,100.0
20,"Edinburgh, SC, United Kingdom",55.9483399,-3.1932723
21,"Navi Mumbai, MH, India",22.0,79.0
22,"Sammamish, WA",47.6017554,-122.0416844
23,"Carlsbad, CA",33.1580933,-117.3505966
24,"Lisbon, LI, Portugal",38.7509759,-9.1521822
25,"Petah Tiqva, HM, Israel",31.5,34.75
26,"Florida, NY",30.8385202,-87.2008048
27,"Hong Kong, HK, Hong Kong (SAR)",22.2793278,114.1628131
28,"Morgantown, WV",39.6296809,-79.9559437
29,"Monterey, CA",36.2231079,-121.387742
30,"Indore, MP, India",22.0,79.0
31,"Whippany, NJ",40.8245442,-74.4170972
32,"San Fernando, CA",34.28497,-118.437652
33,"Montreal, QC, Canada",45.5031824,-73.5698065
34,"Courbevoic, IL, France",46.0,2.0
35,"Folsom, CA",38.6779591,-121.1760583
36,"San Jose, SJ, Costa Rica",9.9325427,-84.0795782
37,"Brussels, BU, Belgium",50.8436353,4.3673537
38,"Markham, ON, Canada",43.8563707,-79.3376825
39,"Noida, UP, India",28.5706333,77.3272147
40,"Southlake, TX",32.9412363,-97.1341783
41,"Burnsville, MN",44.7670567,-93.2773887
42,"Mahwah, NJ",41.0887072,-74.1437552
43,"Hoffman Estates, IL",42.0427256,-88.0792782
44,"Rehovot, HM, Israel",31.9586835,34.7937502
45,"Poughkeepsie, NY",41.7065539,-73.9283672
46,"Lenexa, KS",38.9697458,-94.7845837
47,"Spring, TX",30.0798826,-95.4172549
48,"Taipei, TP, Taiwan",25.0375198,121.5636796
49,"Zaragoza, AR, Spain",40.0,-4.0
50,"Newton, MA",42.3370414,-71.2092214
51,"Hannover, NI, Germany",52.3744779,9.7385532
52,"Pittsburg, CA",38.0181745,-121.8901232
53,"Holmdel, NJ",40.3451095,-74.1840322
54,"Singapore, SG, Singapore",1.2899175,103.8519072
55,"Berkeley, CA",37.8708393,-122.272863
56,"Columbus Grove, OH",40.919711,-84.0568336
57,"Santa Rosa, CA",38.4404925,-122.7141049
58,"Huntington Beach, CA",33.6783336,-118.0000166
59,"Steubenville, OH",40.3697905,-80.6339638
60,"Goleta, CA",34.4358295,-119.8276389
61,"Columbus, OH",39.9622601,-83.0007065
62,"Newport News, VA",36.9775016,-76.42977
63,"Rialto, CA",34.1064001,-117.3703235
64,"Norwalk, CT",41.1175966,-73.4078968
65,"Round Rock, TX",30.5085915,-97.6788056
66,"Mountain View, MO",36.9953322,-91.703755
67,"Seattle, WA",47.6038321,-122.330062
68,"Bellevue, WA",47.6144219,-122.192337
69,"Lodz, LD, Poland",51.7687323,19.4569911
70,"Birmingham, AL",33.5206824,-86.8024326
71,"San Leandro, CA",37.7249296,-122.1560768
72,"Arlington Heights, IL",42.0811563,-87.9802164
73,"Oklahoma City, OK",35.4729886,-97.5170536
74,"Burlingame, CA",37.5780965,-122.3473099
75,"Minnetonka, MN",44.9405086,-93.4638936
76,"Gilroy, CA",37.0065078,-121.5631723
77,"Altrincham, EN, United Kingdom",53.3839662,-2.3525463
78,"Miami, FL",25.7741728,-80.19362
79,"Woodlands, SG, Singapore",1.436897,103.786216
80,"Wilmington, DE",39.7459468,-75.546589
81,"Tualatin, OR",45.3838546,-122.766351
82,"Edgewater, NJ",40.8270448,-73.975694
83,"Cleveland, OH",41.4996574,-81.6936772
84,"Eden Prairie, MN",44.8546856,-93.470786
85,"Roseville, CA",38.7521235,-121.2880059
86,"Nebraska City, NE",40.676526,-95.858694
87,"Clementi, SG, Singapore",1.3168251,103.7660404
88,"Melbourne, VI, Australia",-37.8142176,144.9631608
89,"New Providence, NJ",40.6984348,-74.4015405
90,"Thousand Oaks, CA",34.1705609,-118.8375937
91,"Boise, ID",43.6008183,-116.2421086
92,"Brooklyn, NY",40.6526006,-73.9497211
93,"Littleton, MA",42.5375917,-71.5120096
94,"Emeryville, CA",37.8314089,-122.2865266
95,"Hawaiian Gardens, CA",33.8284787,-118.074313
96,"Poway, CA",32.9628234,-117.035864
97,"Miramar, FL",25.9873137,-80.2322706
98,"Delhi, DL, India",28.6517178,77.2219388
99,"Walnut Creek, CA",37.9020731,-122.0618702
100,"Lille, NO, France",50.583005,3.1445819
101,"Downingtown, PA",40.0064958,-75.7032742
102,"Murray Hill, NJ",40.6953793,-74.4009849
103,"Louisville, CO",39.977763,-105.1319296
104,"Rochester, MN",44.0234387,-92.4630182
105,"Hauppauge, NY",40.8256537,-73.2026138
106,"Peterborough, NH",42.8776166,-71.949383
107,"Kuala Lumpur, KL, Malaysia",3.1407942,101.6939412
108,"Montreal, MO",37.9689254,-92.5921247
109,"Mesa, AZ",33.4151005,-111.831455
110,"Porto Alegre, RS, Brazil",-30.0324999,-51.2303767
111,"Cologne, NW, Germany",50.938361,6.959974
112,"Campbell, CA",37.2870626,-121.9448818
113,"Saint Paul, MN",44.9497487,-93.0931028
114,"Athlone, WH, Ireland",53.4273339,-7.9365857
115,"New Delhi, DL, India",28.6138954,77.2090057
116,"Northridge, CA",34.2345615,-118.5369316
117,"Amstelveen, NH, Netherlands",52.25,5.75
118,"Warren, NJ",40.8602222,-74.9720493
119,"Glendale, CA",34.1469416,-118.2478471
120,"Wilmington, MA",42.5464828,-71.1736669
121,"West Hollywood, CA",34.0923014,-118.3692894
122,"Waukegan, IL",42.3636331,-87.8447938
123,"Charleston, WV",38.3505995,-81.6332812
124,"Portland, OR",45.5202471,-122.674194
125,"Lake Forest, CA",33.6469261,-117.6859213
126,"Shenzhen, GD, China",22.5445741,114.0545429
127,"Redwood City, CA",37.4863239,-122.232523
128,"Manchester, NH",42.9956397,-71.4547891
129,"Ekaterinburg, SV, Russia",56.8762715,60.6572811
130,"Liverpool, NY",43.106456,-76.217705
131,"San Jose, CA",37.3361663,-121.890591
132,"Valdosta, GA",30.8327022,-83.2784851
133,"Fullerton, CA",33.8708215,-117.9294165
134,"Erlangen, BY, Germany",49.5928616,11.0056
135,"Chengdu, SC, China",35.0,105.0
136,"Fulton, MD",39.1509408,-76.9230307
137,"Charleston, SC",32.7884363,-79.9399309
138,"Greenwich, CT",41.0264862,-73.6284598
139,"Traverse City, MI",44.7606441,-85.6165301
140,"Weston, FL",26.1003392,-80.399513
141,"North Haven, CT",41.3909305,-72.859545
142,"Rockville, MD",39.0817985,-77.1516844
143,"Charlottesville, VA",38.029306,-78.4766781
144,"Moline, IL",41.5058344,-90.5136642
145,"Mumbai, MH, India",22.0,79.0
146,"Tokyo, TY, Japan",35.6806291,139.6310974
147,"Iasi, IS, Romania",47.1615416,27.5837224
148,"Hoofddorp, NH, Netherlands",52.25,5.75
149,"American Fork, UT",40.3768064,-111.7959146
150,"Reno, NV",39.5261206,-119.8126581
151,"Raanana, HM, Israel",32.1843773,34.8846351
152,"Allen, TX",33.1031744,-96.6705503
153,"Moscow, MC, Russia",55.6401099,37.5328602
154,"Lund, SN, Sweden",60.4759508,15.7831357
155,"Eagan, MN",44.818173,-93.1659179
156,"Annapolis Junction, MD",39.1254596,-76.7953237
157,"Parker, CO",39.5184514,-104.7612638
158,"Needham, MA",42.2802645,-71.2360624
159,"Chicago Heights, IL",41.5062834,-87.6357079
160,"Reedsville, PA",40.5832717,-76.2087023
161,"Bristol, CT",41.6735209,-72.9464859
162,"Wuppertal, NW, Germany",51.264018,7.1780374
163,"Geneva, GE, Switzerland",46.2017559,6.1466014
164,"Fairfield, CT",41.1412078,-73.2637258
165,"Guatemala, GU, Guatemala",14.6222328,-90.5185188
166,"Andover, MA",42.65717,-71.1408776
167,"West Valley City, UT",40.6967254,-111.986821
168,"Kiev, KC, Ukraine",50.4500336,30.5241361
169,"Venice, VE, Italy",45.4371908,12.3345898
170,"Lindon, UT",40.3432857,-111.72076
171,"Nice, PR, France",43.7009358,7.2683912
172,"Cambridge, MA, United States",42.3750997,-71.1056157
173,"South San Francisco, CA",37.6535403,-122.4168664
174,"Chester Springs, PA",40.0951038,-75.6168681
175,"Arvada, CO",39.8005505,-105.0811573
176,"Dusseldorf, NW, Germany",51.2254018,6.7763137
177,"San Ramon, CA",37.7648021,-121.9544387
178,"Menomonee Falls, WI",43.1790768,-88.1170784
179,"Holtsville, NY",40.8153762,-73.0451085
180,"Redondo Beach, CA",33.8455911,-118.3886766
181,"Kalamazoo, MI",42.291707,-85.5872286
182,"Winchester, EN, United Kingdom",54.9708424,-1.6283646
183,"Northampton, EN, United Kingdom",52.2385239,-0.902493
184,"Brooklyn Park, MN",45.1004807,-93.3443585
185,"Guangzhou, GD, China",23.1301964,113.2592945
186,"Tracy, CA",37.7385507,-121.4201395
187,"Bangalore, KA, India",12.9767936,77.590082
188,"Durham, NC",35.996653,-78.9018053
189,"Mc Lean, VA",29.672913,-95.360021
190,"Frankford, DE",38.518038,-75.233764
191,"Glen Allen, VA",37.6653991,-77.5048404
192,"Gdynia, PM, Poland",54.5233304,18.6040279
193,"Brea, CA",33.9170444,-117.888855
194,"Grand Rapids, MI",42.9632405,-85.6678639
195,"Guadalajara, JA, Mexico",19.2861559,-99.1852963
196,"Hopewell Junction, NY",41.5839824,-73.8087442
197,"Moscow, PA",41.3367497,-75.5185191
198,"Florianopolis, SC, Brazil",-27.5973002,-48.5496098
199,"Fribourg, FR, Switzerland",46.8056255,7.1611125
200,"Jeddah, MK, Saudi Arabia",25.0,45.0
201,"Cupertino, CA",37.3228934,-122.0322895
202,"Fairfax, VA",38.8462236,-77.3063733
203,"El Segundo, CA",33.917028,-118.4156337
204,"Novi Sad, VO, Yugoslavia",45.320206,19.707338
205,"College Station, TX",30.5955289,-96.3071042
206,"Fort Worth, TX",32.753177,-97.3327459
207,"Friday Harbor, WA",48.5342662,-123.017124
208,"Los Angeles, CA",34.0536909,-118.242766
209,"Mill Valley, CA",37.9060368,-122.5449763
210,"Mar del Plata, BA, Argentina",-37.9977225,-57.5482703
211,"Mountain View, CA",37.3893889,-122.0832101
212,"Claymont, DE",39.8006685,-75.4596404
213,"Vermont, IL",40.2942106,-90.4279033
214,"Costa Mesa, CA",33.6633386,-117.903317
215,"California, PA",40.0657724,-79.8918436
216,"West Orange, NJ",40.7987113,-74.2390353
217,"San Diego, TX",27.7639145,-98.2388953
218,"Fort Lauderdale, FL",26.1223084,-80.1433786
219,"Istanbul, IB, Turkey",41.0091982,28.9662187
220,"San Marcos, CA",33.1433723,-117.1661449
221,"Stratford, CT",41.1845415,-73.1331651
222,"Toledo, OH",41.6529143,-83.5378173
223,"Bridgewater, NJ",40.5598127,-74.5517146
224,"Natick, MA",42.2836393,-71.346996
225,"Greenville, SC",34.851354,-82.3984882
226,"West Palm Beach, FL",26.715364,-80.0532942
227,"Plymouth, MA",41.9426657,-70.7618592
228,"Issy-les-Moulineaux, IL, France",48.8250508,2.273457
229,"Schenectady, NY",42.8142432,-73.9395687
230,"Dayton, OH",39.7589478,-84.1916069
231,"Riyadh, RI, Saudi Arabia",25.0,45.0
232,"Cluj-Napoca, CJ, Romania",46.769379,23.5899542
233,"Bangkok, BM, Thailand",15.5,101.0
234,"Boone, NC",36.2165362,-81.6746158
235,"Lexington Park, MD",39.3698861,-76.9768419
236,"Mount Laurel, NJ",39.934002,-74.8909988
237,"Palm Bay, FL",27.9946969,-80.6366144
238,"Manassas, VA",38.7509488,-77.4752667
239,"Londonderry, OH",40.1547909,-81.3003885
240,"Debrecen, HB, Hungary",47.531399,21.6259782
241,"Piscataway, NJ",40.5462553,-74.4660408
242,"Montevideo, MO, Uruguay",-34.8937595,-56.0963329
243,"Amman, AM, Jordan",31.9515694,35.9239625
244,"Pune, MH, India",18.521428,73.8544541
245,"Somerville, MA",42.3875968,-71.0994968
246,"Egypt, AR",35.8681298,-90.9456751
247,"Raleigh, NC",35.7803977,-78.6390989
248,"Gie, HE, Germany",50.7615504,9.7751304
249,"Belmont, CA",37.5164926,-122.2941914
250,"Germantown, IL",38.5538072,-89.5382505
251,"Shingle Springs, CA",38.671387,-120.9405447
252,"Berlin, GA",31.0682441,-83.623778
253,"San Rafael, CA",37.9735346,-122.5310874
254,"Missouri City, MO",39.2408369,-94.2880031
255,"Naperville, IL",41.7728699,-88.1479278
256,"Chandler Heights, AZ",33.2119977,-111.6862444
257,"Windsor Locks, CT",41.9281305,-72.643631
258,"Suwon, KG, Korea, South",36.5,127.75
259,"Spokane, WA",47.6571934,-117.42351
260,"Roswell, GA",34.02332,-84.360022
261,"Burbank, CA",34.1812089,-118.307201
262,"San Carlos, CA",37.504936,-122.261823
263,"Highland Park, NJ",40.4959379,-74.4243178
264,"Toronto, ON, Canada",43.6534817,-79.3839347
265,"Los Gatos, CA",37.226611,-121.9746797
266,"Heidelberg, BW, Germany",49.4093582,8.694724
267,"Bucharest, BU, Romania",44.4356444,26.1009263
268,"Florham Park, NJ",40.7881643,-74.3891647
269,"Sindelfingen, BW, Germany",48.7084162,9.0035455
270,"Birmingham, EN, United Kingdom",52.5232123,-1.8431812
271,"Roanoke, TX",33.0040126,-97.2258483
272,"Gilbert, AZ",33.3527632,-111.789037
273,"Sunnyvale, CA",37.3688301,-122.036349
274,"Poland, IN",39.4442104,-86.950845
275,"Bowling Green, OH",41.3747744,-83.6513229
276,"Stockholm, ST, Sweden",59.366141,18.059593
277,"Vienna, VA",38.9013729,-77.2651762
278,"Iselin, NJ",40.569335,-74.3151125
279,"Bloomfield, CT",41.826488,-72.7300945
280,"King of Prussia, PA",40.705896,-78.003616
281,"Hamburg, HH, Germany",53.6074318,9.9042454
282,"Fredericton, NB, Canada",45.9484558,-66.6530224
283,"Falls Church, VA",38.882334,-77.1710914
284,"Springfield, VA",38.1320798,-78.427788
285,"Morristown, NJ",40.7970382,-74.4809868
286,"Ho Chi Minh City, HC, Vietnam",16.16667,107.83333
287,"Colorado City, CO",37.9452861,-104.8352628
288,"Bedok, SG, Singapore",1.3239765,103.930216
289,"Cape Town, WC, South Africa",-33.928992,18.417396
290,"Kirkland, WA",47.6765382,-122.2070775
291,"Raleigh, ND",46.3577806,-101.3065277
292,"Azusa, CA",34.1338751,-117.9056046
293,"O Fallon, MO",38.7902503,-90.7033292
294,"Ogden, UT",41.2230048,-111.9738429
295,"San Diego, CA",32.7174202,-117.1627728
296,"Wellesley, MA",42.2964859,-71.2925571
297,"Aarhus, AR, Denmark",56.0,10.0
298,"Calgary, AB, Canada",51.0460954,-114.065465
299,"Nizhniy Novgorod, NZ, Russia",56.3264816,44.0051395
300,"Rio Rancho, NM",35.2702448,-106.6329806
301,"Saint Charles, MO",38.783855,-90.481677
302,"Rocklin, CA",38.7907339,-121.2357828
303,"Provo, UT",40.2337289,-111.6587085
304,"Banganapalle, AP, India",15.3205734,78.224988
305,"Jamaica Beach, TX",29.1831247,-94.9729396
306,"Ottawa, ON, Canada",45.4208777,-75.6901106
307,"Virgilina, VA",36.5434739,-78.7750062
308,"Zurich, ZH, Switzerland",47.3744489,8.5410422
309,"Dublin, OH",40.0992294,-83.1140771
310,"Schaumburg, IL",42.0333608,-88.083406
311,"Dnepropetrovsk, DP, Ukraine",48.4680221,35.0417711
312,"Rabat, RA, Morocco",34.0164652,-6.8356701
313,"Rochester, NY",43.157285,-77.615214
314,"Chantilly, VA",38.88668,-77.44566
315,"West Chester, PA",39.9597213,-75.6059638
316,"Buenos Aires, DF, Argentina",-34.6252938,-58.4302329
317,"Bloomington, IN",39.1670396,-86.5342881
318,"Panchiao, TP, Taiwan",25.0096703,121.4590989
319,"Cedar Rapids, IA",41.9758872,-91.6704053
320,"Winnipeg, MB, Canada",49.8955367,-97.1384584
321,"Giza, JZ, Egypt",27.0,30.0
322,"Mason, OH",39.3600586,-84.309939
323,"Mississauga, ON, Canada",43.5896231,-79.6443879
324,"NYCHUM, QL, Australia",-25.0,135.0
325,"Trondheim, ST, Norway",63.433177,10.3909678
326,"Rahway, NJ",40.6081591,-74.2776468
327,"Alphen Aan Den Rijn, ZH, Netherlands",52.1131403,4.6408412
328,"Oshawa, ON, Canada",43.8975558,-78.8635324
329,"Detroit, ME",44.793044,-69.296951
330,"Gdansk, PM, Poland",54.3706858,18.6129821
331,"Taunton, MA",41.9019257,-71.0931485
332,"Tampines, SG, Singapore",1.3546528,103.9435712
333,"Roseland, NJ",40.8206555,-74.2937595
334,"Garner, NC",35.7112642,-78.6141709
335,"Beer-Sheva, HD, Israel",31.2474137,34.7921973
336,"San Juan, PR, Puerto Rico",18.465299,-66.116666
337,"Hudson, MA",42.3913088,-71.5678236
338,"La Canada Flintridge, CA",34.1998302,-118.2005236
339,"Las Tablas, LS, Panama",9.0,-80.0
340,"Alameda, CA",37.6090291,-121.899142
341,"Sheffield, EN, United Kingdom",53.5085429,-1.4805667
342,"Odessa, OD, Ukraine",46.4843023,30.7322878
343,"Camas, WA",45.5863014,-122.403277
344,"Rogers, AR",36.3320197,-94.1185366
345,"Greenville, TX",33.1384488,-96.1108066
346,"Chisinau, CE, Moldova",46.8387497,28.6129702
347,"Hopewell, NJ",40.3892726,-74.7618285
348,"Bratislava, BL, Slovakia",48.1516988,17.1093063
349,"Edmonton, AB, Canada",53.5462055,-113.491241
350,"Dallas Center, IA",41.6844045,-93.9622388
351,"Temecula, CA",33.4946353,-117.1473661
352,"Woodstock, ON, Canada",43.1301111,-80.7562977
353,"Dublin, DN, Ireland",53.3464127,-6.2940176
354,"Menlo Park, CA",37.4519671,-122.177992
355,"Belgrade, SR, Serbia",44.8022292,20.4753965
356,"Utrecht, UT, Netherlands",52.25,5.75
357,"Fort Mill, SC",35.0073697,-80.9450759
358,"Maple Shade, NJ",39.9526127,-74.9923915
359,"Phoenix, AZ",33.4484367,-112.074141
360,"Clearfield, UT",41.1135837,-112.0244841
361,"Redmond, UT",39.0060248,-111.861877
362,"Colorado Springs, CO",38.8339578,-104.825348
363,"Greenwood Village, CO",39.6172101,-104.950814
364,"Tel Aviv, Israel",32.0852997,34.7818064
365,"Basel, BS, Switzerland",47.5581077,7.5878261
366,"Seabrook, NH",42.8846621,-70.8601753
367,"West McLean, VA",38.9320553,-77.1841468
368,"Gurgaon, HR, India",28.4282624,77.0027001
369,"Atlanta, NY",42.5542347,-77.4724875
370,"Helena, MT",46.5927425,-112.036277
371,"Hillsboro, OR",45.5228939,-122.989827
372,"Charlotte, NC",35.2272086,-80.8430827
373,"Tainan, KH, Taiwan",22.9912348,120.184982
374,"Reidsville, NC",36.3548586,-79.6644748
375,"San Mateo, FL",30.4435717,-81.6323184
376,"New Braunfels, TX",29.7028266,-98.1257348
377,"Bloomington, MN",44.8322405,-93.3204872
378,"Usaquen, CU, Colombia",4.695219,-74.0309322
379,"Baton Rouge, LA",30.4507936,-91.1391153
380,"Valbonne, PR, France",43.641141,7.0086255
381,"Sandisfield, MA",42.1115567,-73.1399665
382,"Newark, NJ",40.735657,-74.1723667
383,"Tel Aviv, TA, Israel",32.0852997,34.7818064
384,"Delaware City, DE",39.5778901,-75.588815
385,"Yangon, YA, Burma",20.2217134,92.8557919
386,"Lake Charles, LA",30.2305095,-93.2169807
387,"York, PA",39.9624624,-76.727707
388,"Los Altos, CA",37.3790629,-122.116578
389,"Fresno, CA",36.7394421,-119.7848307
390,"Plymouth, MI",42.3712,-83.4675021
391,"Kaliningrad, KN, Russia",60.0,100.0
392,"Italy, TX",32.1840381,-96.8847194
393,"Bielefeld, NW, Germany",52.0191005,8.531007
394,"Abingdon, MD",39.4623305,-76.2791236
395,"Bala Cynwyd, PA",40.0076125,-75.2340695
396,"Northbrook, IL",42.128704,-87.8265089
397,"Cape Girardeau, MO",37.3034933,-89.5230357
398,"Taichung City, CN, China",35.0,105.0
399,"Herndon, VA",38.9695316,-77.3859479
400,"Miami Beach, FL",25.7929198,-80.1353006
401,"Halifax, NS, Canada",44.648618,-63.5859487
402,"Hamilton, NJ",40.2070573,-74.0812506
403,"Providence, RI",41.8239891,-71.4128343
404,"Julianadorp, NH, Netherlands",52.25,5.75
405,"London, EN, United Kingdom",51.4053758,-0.4235674
406,"Franklin, WI",42.888627,-88.0384195
407,"St. Louis, MO",38.6280278,-90.1910154
408,"Rome, LA, Italy",42.83333,12.83333
409,"Kfar saba, HM, Israel",32.1819482,34.899444
410,"Horsham, PA",40.1784422,-75.1285061
411,"Ulm, BW, Germany",48.3974003,9.9934336
412,"Dresden, SN, Germany",51.0493286,13.7381437
413,"Reston, VA",38.96146,-77.3418
414,"Oulu, OU, Finland",64.0,26.0
415,"Fremont, CA",37.5482697,-121.988571
416,"Vancouver, BC, Canada",49.2608724,-123.113952
417,"Yorktown Heights, NY",41.2709274,-73.7776336
418,"Accra, AA, Ghana",5.5571096,-0.2012376
419,"Colorado City, AZ",36.9902621,-112.97577
420,"Medan, SU, Indonesia",3.5896654,98.6738261
421,"Hahira, GA",30.9913064,-83.3726575
422,"Lima, LI, Peru",-12.0002116,-76.8330796
423,"Thiruvananthapuram, KL, India",8.4882267,76.947551
424,"Thornton, CO",39.8695516,-104.985181
425,"Ridley Park, PA",39.8812236,-75.3237993
426,"Malaga, AN, Spain",36.7213028,-4.4216366
427,"Karlsruhe, BW, Germany",49.0068705,8.4034195
428,"Beverly, MA",42.5584284,-70.8800491
429,"Torrance, CA",33.8358492,-118.3406288
430,"Hermitage, TN",36.1961664,-86.6224959
431,"Paterson, NJ",40.9167654,-74.171811
432,"Los Alamitos, CA",33.8038865,-118.0772433
433,"Princeton, NJ",40.3492744,-74.6592958
434,"Orange, CA",33.7500378,-117.8704931
435,"Leixlip, KE, Ireland",53.3644766,-6.4897438
436,"Ankara, AN, Turkey",39.9207886,32.8540482
437,"Bournemouth, EN, United Kingdom",54.9979067,-1.692613
438,"Gaithersburg, MD",39.1399187,-77.1929215
439,"Columbia, MD",38.7932703,-77.0009707
440,"Kansas City, MO",39.100105,-94.5781416
441,"Bothell, WA",47.7623204,-122.2054035
442,"Telford, EN, United Kingdom",52.7005527,-2.5167493
443,"Newark, DE",39.6775927,-75.7630866
444,"Trivandrum, KL, India",8.4882267,76.947551
445,"Redmond, WA",47.6694141,-122.1238767
446,"Ontario, CA",34.065846,-117.6484304
447,"Waltham, MA",42.3756401,-71.2358004
448,"Owego, NY",42.1034528,-76.2622669
449,"Palm Springs, CA",33.8246269,-116.540303
450,"Toulouse, MI, France",43.6150562,1.3041181
451,"Gothenburg, VG, Sweden",62.0,15.0
452,"Monroe, LA, United States",32.5102427,-92.1032411
453,"Wausau, WI",44.9596017,-89.6298239
454,"Fukuoka, FK, Japan",33.5892548,130.3994222
455,"Davie, FL",26.0628665,-80.2331038
456,"Munich, BY, Germany",48.1371079,11.5753822
457,"La Crosse, WI",43.8122836,-91.2514355
458,"Teaneck, NJ",40.8860164,-74.0072568
459,"Plymouth Meeting, PA",40.102332,-75.2743467
460,"Milford, MI",42.5917805,-83.6000696
461,"Wilmington, NC",34.2257282,-77.9447107
462,"Hilbert, WI",44.140268,-88.1639908
463,"East Rutherford, NJ",40.833989,-74.0970865
464,"Johnston, IA",41.6731523,-93.6973395
465,"Guildford, EN, United Kingdom",54.9806252,-1.5802047
466,"Stockport, EN, United Kingdom",53.4077455,-2.1601108
467,"Paris, IL, France",48.8588897,2.320041
468,"Oregon, OH",41.6436603,-83.4868768
469,"Merrimack, NH",43.3260376,-71.6854725
470,"Sunrise, FL",26.1666888,-80.2787573
471,"Taoyuan, TA, Taiwan",25.0162567,121.399726
472,"McLean, NE",42.386557,-97.4685993
473,"Saint Petersburg, SP, Russia",59.8300154,30.309047
474,"Bogota, DC, Colombia",4.6529539,-74.0835643
475,"Feltham, EN, United Kingdom",51.4343588,-0.4398461
476,"Oregon City, OR",45.3573429,-122.6067583
477,"Shelton, CT",41.3164856,-73.0931641
478,"Luxembourg, LU, Luxembourg",49.6112768,6.129799
479,"Pontiac, MI",42.6389216,-83.2910468
480,"Nanjing, JS, China",32.0615513,118.7915619
481,"Sacramento, PA",40.6345309,-76.5888514
482,"Richmond, BC, Canada",49.163168,-123.137414
483,"Elk Grove, CA",38.4087993,-121.3716178
484,"Taichung City, TP, Taiwan",24.1060508,120.6152863
485,"Sembawang, SG, Singapore",1.4490928,103.8200555
486,"Livermore, CA",37.6820583,-121.768053
487,"Marlborough, MA",42.3459271,-71.5522874
488,"Dearborn, MI",42.3222599,-83.1763145
489,"Everett, WA",47.9793437,-122.2127011
490,"La Jolla, CA",32.8401623,-117.2740777
491,"Temple, TX",31.098207,-97.3427847
492,"Saint Petersburg, FL",27.7703796,-82.6695085
493,"Santa Clarita, CA",34.4127963,-118.5538088
494,"Skillman, NJ",40.4201055,-74.7146049
495,"Portland, ME",43.6592687,-70.2572642
496,"Krakow, MA, Poland",50.0619474,19.9368564
497,"Sparks, NV",39.5404679,-119.7487235
498,"Parsippany, NJ",40.8578772,-74.4259866
499,"Rome, NY",43.2128473,-75.4557304
500,"Boulder, CO",40.0149856,-105.270545
501,"Scottsdale, AZ",33.4942189,-111.926018
502,"Peachtree City, GA",33.3967829,-84.5957629
503,"San Fernando, LB, Philippines",13.0,122.0
504,"Memphis, TN",35.1460249,-90.0517638
505,"Bend, OR",44.0581728,-121.3153096
506,"Berlin, CT",41.621488,-72.7456519
507,"Buda, TX",30.082475,-97.8417144
508,"Germantown, MD",39.1731621,-77.2716502
509,"Stuttgart, BW, Germany",48.7784485,9.1800132
510,"Iowa City, IA",41.6612561,-91.5299106
511,"McLean, TX",35.2325495,-100.5998558
512,"Renton, WA",47.4799078,-122.2034496
513,"Seoul, KG, Korea, South",36.5,127.75
514,"Kochi, KL, India",9.9674277,76.2454436
515,"Indian Lake, NY",43.782497,-74.272041
516,"San Bruno, CA",37.6261715,-122.433243
517,"Vancouver, WA",45.6306954,-122.6744557
518,"Norwich, EN, United Kingdom",54.75844,-2.69531
519,"Irvine, PA",41.8392258,-79.2683812
520,"Dearborn Heights, MI",42.3369816,-83.2732627
521,"California Hot Springs, CA",35.8802282,-118.6736995
522,"Albuquerque, NM",35.0841034,-106.650985
523,"Boxborough, MA",42.4827512,-71.5142726
524,"Kent, WA",47.3826903,-122.2270272
525,"Eatontown, NJ",40.2962222,-74.0509725
526,"Newtown Square, PA",39.9868117,-75.4007633
527,"Pittsburgh, PA",40.4416941,-79.9900861
528,"Shevlin, MN",47.5300348,-95.2592685
529,"Bergenfield, NJ",40.9275987,-73.9973608
530,"Boston, MA",42.3554334,-71.060511
531,"Milano, LO, Italy",41.897209,12.4923275
532,"Kanata, ON, Canada",45.3128048,-75.8940505
533,"Hyderabad, AP, India",15.8147021,78.0265024
534,"Santa Rosa Beach, FL",30.3466423,-86.2307992
535,"Ashburn, VA",39.0049709,-77.4911968
536,"Chennai, TN, India",22.0,79.0
537,"Elkridge, MD",39.2128338,-76.7137155
538,"Mechanicsburg, PA",40.2101972,-77.0047276
539,"Mountain View, AR",35.8684075,-92.1176521
540,"St. Petersburg, FL",27.7703796,-82.6695085
541,"Daly City, CA",37.6904826,-122.47267
542,"Sofia, SF, Bulgaria",42.66667,25.25
543,"Whitehouse Station, NJ",40.61538,-74.7704409
544,"Staines, EN, United Kingdom",51.432328,-0.5029086
545,"Westborough, MA",42.2694308,-71.6129907
546,"Berlin, BE, Germany",51.5,10.5
547,"Coppell, TX",32.9552598,-97.0155703
548,"Hangzhou, ZJ, China",30.2489634,120.2052342
549,"Madrid, MD, Spain",40.0,-4.0
550,"Basingstoke, EN, United Kingdom",51.2691262,-0.7858858
551,"St Paul, MN",44.9497487,-93.0931028
552,"Carpinteria, CA",34.3988838,-119.5184564
553,"Moorestown, NJ",39.9670569,-74.9426677
554,"Woodland Hills, CA",34.1684364,-118.6058382
555,"Van Nuys, CA",34.1866193,-118.4486675
556,"Dublin, IN",39.8120306,-85.2088645
557,"Lexington, KY",38.0464066,-84.4970393
558,"London, KY",37.1289771,-84.0832646
559,"Palo Alto, CA",37.4443293,-122.1598465
560,"Roseville, MN",45.0060767,-93.1566107
561,"Warren, MI",42.4932575,-83.0062746
562,"Atlanta, GA",33.7489924,-84.3902644
563,"Kitchener, ON, Canada",43.451291,-80.4927815
564,"Stamford, CT",41.0534302,-73.5387341
565,"Waukesha, WI",43.0116784,-88.2314813
566,"Claremont, CA",34.0966764,-117.7197785
567,"Fort Knox, KY",37.8976552,-85.9038521
568,"hod hasharon, HM, Israel",32.16256,34.887604
569,"China, ME",44.4790605,-69.5175458
570,"Dublin, CA",37.7021521,-121.9357918
571,"Cambridge, MA",42.3750997,-71.1056157
572,"Middletown, NJ",40.3898188,-74.1162152
573,"Nottingham, EN, United Kingdom",53.5427177,-1.4229395
574,"Pascagoula, MS",30.3646795,-88.5585995
575,"Nurnberg, BY, Germany",49.453872,11.077298
576,"Lansing, MI",42.7337712,-84.5553805
577,"Deerfield, IL",42.1711365,-87.8445119
578,"Haifa, HA, Israel",32.8191218,34.9983856
579,"Cary, NC",35.7882893,-78.7812081
580,"Point Richmond, CA",37.9240915,-122.3891383
581,"Tucson, AZ",32.2228765,-110.9748477
582,"Murfreesboro, TN",35.8460396,-86.3921096
583,"Richmond, CA",37.9357576,-122.347748
584,"Inwood, WV",39.3579068,-78.040009
585,"Queretaro, QE, Mexico",20.58806,-100.38806
586,"Fort George G Meade, MD",39.1022704,-76.7462558
587,"Bern, BE, Switzerland",46.9484742,7.4521749
588,"Jakarta, JK, Indonesia",-6.1875613,106.8277658
589,"Nashua, NH",42.7656251,-71.4677032
590,"Richmond, VA",37.5385087,-77.43428
591,"Jersey City, NJ",40.7215682,-74.047455
592,"Hollywood, CA",34.0980031,-118.329523
593,"Sherbrooke, QC, Canada",45.403271,-71.889038
594,"Lindau, BY, Germany",47.550753,9.6926624
595,"Lehi, UT",40.3881114,-111.8486019
596,"Bossier City, LA",32.5369356,-93.6952689
597,"T'ai-chung, TA, Taiwan",24.0,121.0
598,"Brighton, EN, United Kingdom",54.9813375,-1.6364628
599,"Tampa, FL",27.9477595,-82.458444
600,"San Francisco, CA",37.7790262,-122.419906
601,"Murray, UT",40.6667841,-111.888417
602,"Campinas, SP, Brazil",-22.9056391,-47.059564
603,"Champaign, IL",40.1164841,-88.2430932
604,"Tempe, AZ",33.4255117,-111.9400164
605,"Brisbane, QL, Australia",-25.0,135.0
606,"Columbus, IN",39.2014405,-85.9213796
607,"Aberdeen Proving Ground, MD",39.4698142,-76.1273306
608,"Berlin Center, OH",41.0245026,-80.9475891
609,"Simsbury, CT",41.8759152,-72.8012211
610,"Culver City, CA",34.0211224,-118.396466
611,"Auburn Hills, MI",42.6875323,-83.2341028
612,"South Jordan, UT",40.5584882,-111.9367107
613,"Beijing, BJ, China",39.9057136,116.3912972
614,"Meriden, CT",41.5381535,-72.8070435
615,"Newark, CA",37.5296593,-122.0402399
616,"Zug, ZG, Switzerland",47.1679898,8.5173652
617,"Bengaluru, KA, India",12.9767936,77.590082
618,"Marietta, GA",33.9528472,-84.5496148
619,"Buffalo, NY",42.8867166,-78.8783922
620,"Perth, WA, Australia",-31.9558933,115.8605855
621,"Kharkiv, KK, Ukraine",49.9923181,36.2310146
622,"Lake Mary, FL",28.7562749,-81.322093
623,"Shawnee Mission, KS",38.9913474,-94.6327403
624,"London, OH",39.8864493,-83.448253
625,"San Dimas, CA",34.1066756,-117.8067257
626,"Bellevue, ID",43.463518,-114.2606
627,"Medellin, AN, Colombia",4.0,-73.25
628,"New Haven, CT",41.3082138,-72.9250518
629,"Warsaw, MZ, Poland",52.2337172,21.0714322
630,"Sacramento, CA",38.5810606,-121.493895
631,"Austin, TX",30.2711286,-97.7436995
632,"Texas City, TX",29.396013,-94.9175485
633,"Purchase, NY",41.0409305,-73.7145746
634,"Gandhinagar, GJ, India",23.2232877,72.6492267
635,"Columbus, GA",32.4610708,-84.9880449
636,"Allen Park, MI",42.2595071,-83.2107671
637,"Lviv, LV, Ukraine",49.841952,24.0315921
638,"Walldorf, BW, Germany",49.3038134,8.6433518
639,"Tashkent, TO, Uzbekistan",41.3050232,69.4694492
640,"Bethesda, MD",38.9843774,-77.0941675
641,"North Reading, MA",42.5750939,-71.0786653
642,"Suwanee, GA",34.0514898,-84.0712997
643,"Berwyn, PA",40.0448306,-75.4388053
644,"Aspen, CO",39.1911128,-106.8235606
645,"Lafayette, LA",30.2043259,-92.0298813
646,"Verona, WI",42.9905492,-89.5335575
647,"Wroclaw, DS, Poland",51.1089776,17.0326689
648,"Hillsboro, OH",39.2022866,-83.611587
649,"New York Mills, NY",43.105495,-75.291367
650,"Monroe, LA",32.5102427,-92.1032411
651,"Tustin, CA",33.7458511,-117.826166
652,"Ellicott City, MD",39.2673284,-76.7983067
653,"Fall River, MA",41.7010642,-71.1546367
654,"Pennsylvania Furnace, PA",40.7058962,-78.0036156
655,"Kwajalein, MH, Marshall Islands",7.113,171.252
656,"Sochi, KD, Russia",43.5854823,39.723109
657,"Sorrento, FL",28.8074435,-81.5638095
658,"Suitland, MD",38.848724,-76.9238625
659,"Alpharetta, GA",34.0709576,-84.2747329
660,"Crapo, MD",38.3198447,-76.1310514
661,"Hunt Valley, MD",39.4922608,-76.6589528
662,"Victoria, BC, Canada",48.4283182,-123.3649533
663,"Corvallis, OR",44.5645659,-123.2620435
664,"Islamabad, IS, Pakistan",33.6938118,73.0651511
665,"Wayne, NJ",40.9491723,-74.2376802
666,"Dublin, TX",32.086135,-98.3422331
667,"Petach Tikva, HM, Israel",32.1843773,34.8846351
668,"Johannesburg, GT, South Africa",-26.205,28.049722
669,"New City, NY",41.1469917,-73.9902998
670,"Edison, NJ",40.518157,-74.4113926
671,"Lake Saint Louis, MO",38.7850251,-90.7935034
672,"Evanston, IL",42.0447388,-87.6930459
673,"Ballston Spa, NY",43.0009087,-73.8490111
674,"Barcelona, CT, Spain",41.3828939,2.1774322
675,"London, WV",38.1943567,-81.3686944
676,"Belo Horizonte, MG, Brazil",-19.9227318,-43.9450948
677,"Pennington, NJ",40.3281213,-74.7909992
678,"Ingolstadt, BY, Germany",48.7630165,11.4250395
679,"Heredia, HE, Costa Rica",9.9604634,-84.0783204
680,"East Hartford, CT",41.7823216,-72.6120346
681,"Farmington, CT",41.7198216,-72.8320435
682,"Milpitas, CA",37.4332273,-121.8989248
683,"Arizona City, AZ",32.7484,-111.6759051
684,"Dover, NH",43.1981117,-70.8739761
685,"Denver, CO",39.7392364,-104.984862
686,"Leeds, EN, United Kingdom",53.5019817,-1.4399688
687,"Port of Spain, PO, Trinidad and Tobago",11.0,-61.0
688,"Waterloo, AL",34.9181425,-88.064203
689,"Needham Heights, MA",42.2931505,-71.2352363
690,"Galway, GY, Ireland",53.0,-8.0
691,"Sarasota, FL",27.3365805,-82.5308545
692,"Dallas, TX",32.7762719,-96.7968559
693,"Boca Raton, FL",26.3586885,-80.0830984
694,"Johnston, RI",41.8310404,-71.5412101
695,"Southbury, CT",41.4814848,-73.2131693
696,"Watford, EN, United Kingdom",54.75844,-2.69531
697,"Chapel Hill, NC",35.9131542,-79.05578
698,"Dublin, PA",40.3715883,-75.2016245
699,"Worcester, MA",42.2625621,-71.8018877
700,"Woonsocket, RI",42.0028761,-71.5147839
701,"Westport, CT",41.1414855,-73.3578955
702,"Vacaville, CA",38.3565773,-121.9877444
703,"Smithfield, RI",41.9220433,-71.549507
704,"Cork, CK, Ireland",53.0,-8.0
705,"Manchester, EN, United Kingdom",53.5009605,-1.5737678
706,"Titusville, NJ",40.3095516,-74.8804428
707,"Frederick, MD",39.415779,-77.4127562
708,"San Juan Bautista, CA",36.8455173,-121.537989
709,"Westford, MA",42.5792583,-71.4378411
710,"Seal Beach, CA",33.7423967,-118.1055926
711,"South Bend, IN",41.6833813,-86.2500066
712,"Plymouth, MN",45.0065149,-93.46651
713,"Brazil, IN",39.523652,-87.1250154
714,"Franklin, TN",35.925206,-86.8689419
715,"Sao Paulo, SP, Brazil",-23.5506507,-46.6333824
716,"Manhattan Beach, CA",33.8915985,-118.3951241
717,"New Hampton, NH",43.605753,-71.654892
718,"Exton, PA",40.0289955,-75.6207651
719,"Silver Spring, MD",38.9927608,-77.0300984
720,"Burnaby, BC, Canada",49.2433804,-122.972545
721,"Long Beach, CA",33.7690164,-118.191604
722,"Moscow, ID",46.7323875,-117.0001651
723,"Virginia Beach, VA",36.8529841,-75.9774183
724,"Minsk, HM, Belarus",53.9153998,27.5501565
725,"Levis, QC, Canada",46.8033114,-71.1778792
726,"Irving, TX",32.8295183,-96.9442177
727,"Dubai, DU, United Arab Emirates",25.0742823,55.1885387
728,"Englewood, CO",39.6482059,-104.9879641
729,"Nineveh, NI, Iraq",36.3564339,43.1621647
730,"Bozeman, MT",45.6794293,-111.044047
731,"Dulles, VA",38.9522663,-77.4534849
732,"Lebanon, NH",43.643032,-72.251587
733,"Santiago, RM, Chile",-33.4377756,-70.6504502
734,"Novosibirsk, NS, Russia",60.0,100.0
735,"Trenton, NJ",40.2205944,-74.7597219
736,"Nazareth Illit, HZ, Israel",32.7023065,35.3183216
737,"Illinois City, IL",41.3975305,-90.8995898
738,"Santa Barbara, CA",34.4221319,-119.702667
739,"Washington, DC",38.8950368,-77.0365427
740,"Troy, MI",42.6055893,-83.1499304
741,"Minsk, MI, Belarus",53.0,28.0
742,"Kyoto, KY, Japan",34.9795143,135.7521367
743,"Michigan Center, MI",42.2330918,-84.3271772
744,"Framingham, MA",42.2773177,-71.4165905
745,"Monument, CO",39.0916586,-104.872758
746,"Minneapolis, MN",44.9772995,-93.2654692
747,"Indianapolis, IN",39.7683331,-86.1583502
748,"Munich, ND",48.669174,-98.832631
749,"Hayward, CA",37.6688205,-122.080796
750,"Cheyenne, WY",41.139981,-104.820246
751,"Mandaluyong City, MM, Philippines",14.5776485,121.0337001
752,"Yerevan, ER, Armenia",40.1553963,44.5077993
753,"Tacoma, WA",47.2455013,-122.438329
754,"Norfolk, VA",36.8448348,-76.2863999
755,"Armonk, NY",41.1264847,-73.7139777
756,"Snoqualmie, WA",47.5289527,-121.827093
757,"Westminster, CO",39.8366528,-105.0372046
758,"Arlington, VA",38.8769326,-77.0893094
759,"Salt Lake City, UT",40.7596198,-111.886797
760,"Manila, MM, Philippines",14.5948914,120.9782618
761,"Oakland, CA",37.8044557,-122.271356
762,"Endicott, NY",42.098408,-76.0493684
763,"Fayetteville, NC",35.0525759,-78.878292
764,"Zapopan, JA, Mexico",20.7045255,-103.4544307
765,"Secaucus, NJ",40.7899291,-74.0566735
766,"Paris, IL",39.611146,-87.6961374
767,"Palmdale, CA",34.5793131,-118.1171108
768,"Nashville, TN",36.1622767,-86.7742984
769,"Urbandale, IA",41.6274511,-93.7380243
770,"Saratov, SR, Russia",60.0,100.0
771,"Montvale, NJ",41.0467635,-74.0229173
772,"Gold Coast, QL, Australia",-25.0,135.0
773,"Hoboken, NJ",40.7433066,-74.0323752
774,"Goshen, IN",41.5824086,-85.834366
775,"Summit, NJ",40.7182356,-74.3592296
776,"Penang, PG, Malaysia",5.4195597,100.339951
777,"Angeles City, PM, Philippines",13.0,122.0
778,"Linthicum Heights, MD",39.2039094,-76.6597094
779,"Georgiana, AL",31.6371028,-86.7419175
780,"Sumner, WA",47.2061882,-122.2312383
781,"San Francisco De Dos Rios, SJ, Costa Rica",9.9084178,-84.0594842
782,"Auckland, AU, New Zealand",-36.852095,174.7631803
783,"Bad Homburg, HE, Germany",50.2267699,8.6169093
784,"Bedford, MA",42.4917301,-71.2817947
785,"California City, CA",35.125801,-117.9859038
786,"San Luis Obispo, CA",35.3540209,-120.375716
787,"Pelham, NH",42.734534,-71.3245067
788,"Chu-nan, TW, Taiwan",25.06314,121.5162496
789,"Santa Monica, CA",34.0194704,-118.491227
790,"Sabinsville, PA",41.8678482,-77.525262
791,"Menomonie, WI",44.8755183,-91.9193422
792,"Prineville, OR",44.2998261,-120.834972
793,"Allentown, PA",40.6022059,-75.4712794
794,"Dublin, GA",32.5404447,-82.903754
795,"Jacksonville, FL",30.3321838,-81.655651
796,"New York, NY",40.7127281,-74.0060152
797,"Almaty, AC, Kazakhstan",48.0,68.0
798,"Washington, VA",36.740236,-81.9421666
799,"Montpellier, LA, France",47.3746883,-0.8451945
800,"College Park, MD",38.980666,-76.9369189
801,"Farmington, UT",40.9804423,-111.8874688
802,"London Mills, IL",40.7105947,-90.2662355
803,"Minnesota City, MN",44.0938521,-91.7495959
804,"Canada, KY",37.6056575,-82.3243095
805,"Berkeley Heights, NJ",40.6834349,-74.442653
806,"Hiawatha, IA",42.0385304,-91.6737592
807,"Kokomo, IN",40.4864444,-86.1336351
808,"Littleton, CO",39.613321,-105.016649
809,"The Hague, ZH, Netherlands",52.0799838,4.3113461
810,"Owings Mills, MD",39.4105423,-76.7916963
811,"Amersfoort, UT, Netherlands",52.25,5.75
812,"Naples, FL",26.1421976,-81.7942944
813,"Prague, PR, Czech Republic",49.75,15.0
814,"Madison, WI",43.074761,-89.3837613
815,"Neuchatel, NE, Switzerland",47.00016,8.01427
816,"Fredericksburg, VA",38.3031837,-77.4605399
817,"Las Vegas, NV",36.1672559,-115.148516
818,"Milwaukee, WI",43.0349931,-87.922497
819,"Herzliyya, TA, Israel",31.80124,34.97504
820,"Melbourne, FL",28.106471,-80.6371513
821,"Shanghai, SH, China",31.2323437,121.4691024
822,"Denver City, TX",32.9679571,-102.8293851
823,"Sao Leopoldo, RS, Brazil",-29.7544405,-51.1516497
824,"North Charleston, SC",32.8546197,-79.9748103
825,"Oxford, MS",34.3663773,-89.5187664
826,"Midvale, UT",40.6149174,-111.9106607
827,"Omaha, NE",41.2587459,-95.9383758
828,"Dublin, NH",42.9059403,-72.061978
829,"Duluth, GA",34.0028569,-84.1441046
830,"Loveland, CO",40.385549,-105.0443613
831,"Concord, NC",35.4094178,-80.5800049
832,"Manhattan, NY",40.7587979,-73.9623427
833,"Boston, AR",35.8406347,-93.601299
834,"North Houston, TX",29.9199024,-95.5187207
835,"Mexico, DF, Mexico",19.3999163,-99.1725533
836,"Bellevue, OH",41.2736163,-82.8409057
837,"Kaneohe, HI",20.24232,-155.83323
838,"Wichita, KS",37.6922361,-97.3375448
839,"Lausanne, VD, Switzerland",46.5218269,6.6327025
840,"Eindhoven, NB, Netherlands",52.25,5.75
841,"Malvern, PA",40.036202,-75.5138959
842,"Buffalo Grove, IL",42.1514146,-87.959794
843,"Saint Peters, MO",38.791612,-90.5958468
844,"Jerusalem, JM, Israel",31.7788242,35.2257626
845,"Westerville, OH",40.126139,-82.9295287
846,"Newport Beach, CA",33.6170092,-117.9294401
847,"Cape Canaveral, FL",28.45077,-80.52662
848,"Fountain Inn, SC",34.6890095,-82.1956679
849,"Pleasanton, CA",37.6624312,-121.8746789
850,"Englewood Cliffs, NJ",40.8853773,-73.9523597
851,"San Jose, IL",40.305598,-89.6028829
852,"Hanoi, HN, Vietnam",21.0327085,105.8545846
853,"Pensacola, FL",30.421309,-87.2169149
854,"Beaverton, OR",45.4871723,-122.80378
855,"Hopkinton, MA",42.2288875,-71.5196439
856,"Deerfield Beach, FL",26.318342,-80.0996306
857,"Draper, UT",40.5247777,-111.8627989
858,"Helsinki, ES, Finland",60.1652826,24.938909
859,"Graz, ST, Austria",47.0581999,15.4601874
860,"Ciudad de Mexico, MX, Mexico",18.1510321,-94.5181526
861,"Bolivia, NC",34.0676715,-78.1483283
862,"Plano, TX",33.0136764,-96.6925096
863,"Canberra, CT, Australia",-35.3160077,149.0975371
864,"Olathe, KS",38.8838856,-94.81887
865,"Augusta, GA",33.4709714,-81.9748429
866,"Johnson City, TN",36.3134398,-82.3534728
867,"Mobile, AL",30.6913462,-88.0437509
868,"Yeovil, EN, United Kingdom",51.2782789,-0.7393957
869,"Moscow Mills, MO",38.9478267,-90.9181916
870,"Belgium, WI",43.4997212,-87.850367
871,"Philadelphia, PA",39.9527237,-75.1635262
872,"Aliso Viejo, CA",33.5761376,-117.7258122
873,"Layton, UT",41.0751048,-111.9741925
874,"Nantes, PA, France",47.2186371,-1.5541362
875,"Lyon, RH, France",45.7751343,4.8071703
876,"Redlands, CA",34.0550328,-117.1827445
877,"Saskatoon, SK, Canada",52.131802,-106.660767
878,"Suffolk, VA",36.7282096,-76.5835703
879,"Amsterdam, NH, Netherlands",52.25,5.75
880,"Fort Wayne, IN",41.0799898,-85.1386015
881,"Arlington, TX",32.7355816,-97.1071186
882,"Hanover, MD",39.1928853,-76.7241371
883,"Suzhou, JS, China",31.3016935,120.5810725
884,"Annapolis, MD",38.9786401,-76.492786
885,"Sandy, UT",40.5710454,-111.8953815
886,"Beloit, WI",42.5083272,-89.031784
887,"Ames, IA",42.0267567,-93.6170448
888,"Nairobi, NA, Kenya",-0.1554129,36.0955731
889,"Tulsa, OK",36.1563122,-95.9927516
890,"Regensburg, BY, Germany",49.0195333,12.0974869
891,"Cochin, KL, India",9.9674277,76.2454436
892,"Kansas City, KS",39.1134562,-94.626497
893,"Fort Collins, CO",40.5508527,-105.0668085
894,"San Antonio, TX",29.4246002,-98.4951405
895,"Annandale, VA",38.835762,-77.212794
896,"Overland Park, KS",38.9742502,-94.6851702
897,"Palm Beach, FL",26.6279798,-80.4494174
898,"Chicago, IL",41.8755616,-87.6244212
899,"Broomfield, CO",39.9403995,-105.05208
900,"Dortmund, NW, Germany",51.5142273,7.4652789
901,"Lagos, LA, Nigeria",10.0,8.0
902,"Winston Salem, NC",36.0998131,-80.2440518
903,"Wayne, PA",41.6264414,-75.3045103
904,"Plantation Acres, FL",26.1436969,-80.3061612
905,"Langhorne, PA",40.1745538,-74.9226665
906,"Cambridge, EN, United Kingdom",54.9656738,-1.6322738
907,"Syracuse, NY",43.0481221,-76.1474244
908,"Tampere, ES, Finland",64.0,26.0
909,"Mississippi State, MS",33.4386876,-88.7943232
910,"Pasir Ris, SG, Singapore",1.3730307,103.949255
911,"Covington, KY",39.0836224,-84.508371
912,"Basking Ridge, NJ",40.7064088,-74.5492725
913,"Rotterdam, ZH, Netherlands",51.9244424,4.47775
914,"Morris Plains, NJ",40.8364845,-74.4781885
915,"Hudson, NH",42.7654433,-71.4397167
916,"Longmont, CO",40.1672117,-105.1019287
917,"Oslo, OS, Norway",59.9723975,10.7757292
918,"Santa Clara, CA",37.2333253,-121.6846349
919,"Portsmouth, RI",41.5524614,-71.2703783
920,"Vilnius, VL, Lithuania",54.6870458,25.2829111
921,"Newcastle Upon Tyne, EN, United Kingdom",54.968733,-1.6171916
922,"Sunnyvale, TX",32.7965165,-96.5608242
923,"Burlington, VT",44.4761601,-73.212906
924,"Oxford, EN, United Kingdom",54.9750155,-1.6081085
925,"Nagoya, AI, Japan",35.1851045,136.8998438
926,"Budapest, BU, Hungary",47.5161565,19.0001274
927,"Clearwater, FL",27.9658533,-82.8001026
928,"Sugar Land, TX",29.6196787,-95.6349463
929,"Bonn, NW, Germany",50.735851,7.10066
930,"Athens, GA",33.9597677,-83.376398
931,"Malmo, NE",41.2661152,-96.7222503
932,"Detroit, MI",42.3315509,-83.0466403
933,"Wilton, CT",41.1953739,-73.4378988
934,"Johor Baharu, JH, Malaysia",2.5,112.5
935,"Dhaka, DA, Bangladesh",23.7644025,90.389015
936,"Albany, NY",42.6511674,-73.754968
937,"Saint Louis, MI",43.4083637,-84.6066704
938,"Ireland, IN",38.4147739,-86.9994455
939,"Mckinney, TX",33.1976496,-96.6154471
940,"Swindon, EN, United Kingdom",54.9910149,-1.5803582
941,"Aguadilla, PR, Puerto Rico",18.4297923,-67.1542201
942,"Pasadena, CA",34.1476452,-118.1444779
943,"Warrenville, IL",41.8179303,-88.174097
944,"Huntsville, AL",34.729847,-86.5859011
945,"Limerick, LK, Ireland",52.661252,-8.6301239
946,"Hatfield, EN, United Kingdom",53.6007053,-1.461918
947,"Tromso, TR, Norway",62.0,10.0
948,"Oldsmar, FL",28.0341847,-82.6650992
949,"Hartford, CT",41.764582,-72.6908547
950,"Columbia, SC",33.987454,-81.024864
951,"New Brunswick, NJ",40.4862174,-74.4518173
952,"Harrisburg, PA",40.2663107,-76.8861122
953,"Eugene, OR",44.0505054,-123.0950506
954,"Portsmouth, NH",43.0702223,-70.7548621
955,"Alexandria, VA",38.8051095,-77.0470229
956,"Indiana, PA",40.6424116,-79.1262839
957,"Doha, DA, Qatar",25.2763932,51.5115861
958,"Honolulu, HI",21.304547,-157.855676
959,"Kherson, MY, Ukraine",49.0,32.0
960,"Santa Maria, CA",34.9531295,-120.435857
961,"San Mateo, CA",37.496904,-122.3330573
962,"Brampton, ON, Canada",43.685832,-79.7599366
963,"Issaquah, WA",47.5348778,-122.0432974
964,"Bristol, EN, United Kingdom",54.9682478,-1.6386211
965,"Veldhoven, NB, Netherlands",52.25,5.75
966,"Sydney, NS, Australia",-33.8698439,151.2082848
967,"Torino, PI, Italy",45.0542455,9.6767728
968,"Philipsburg, SM, Netherlands Antilles",12.11721,-68.91964
969,"Foster City, CA",37.5600336,-122.2688522
970,"Frankfurt, HE, Germany",50.1106444,8.6820917
971,"Santa Cruz, CA",37.050096,-121.9905908
972,"New Orleans, LA",29.9759983,-90.0782127
973,"Irvine, CA",33.6856969,-117.8259819
974,"Dalian, LN, China",38.9181714,121.6282945
975,"Anaheim, CA",33.8347516,-117.911732
976,"Ann Arbor, MI",42.2681569,-83.7312291
977,"Kolkata, WB, India",22.5726459,88.3638953
978,"Windsor, CT",41.8525984,-72.6437022
979,"Wimborne Minster, EN, United Kingdom",54.75844,-2.69531
980,"Fairmont, WV",39.4850848,-80.1425781
981,"Adelaide, SA, Australia",-34.9281805,138.5999312
982,"Hawthorne, CA",33.9188589,-118.3483256
983,"Columbia, MO",38.951883,-92.3337366
984,"Antioch, TN",36.0600602,-86.6722192
985,"Belfast, NI, United Kingdom",54.596391,-5.9301829
986,"RIGA, RI, Latvia",57.0,25.0
987,"New York Mills, MN",46.5180469,-95.3763155
988,"Saratoga Springs, NY",43.0821793,-73.7853915
989,"Fairfax Station, VA",38.800859,-77.3256803
990,"Sterling, VA",37.6350164,-77.6076755
991,"Toronto, OH",40.4653962,-80.6009547
992,"Chennai, undefined, India",1.3064015,103.8515792
993,"Londonderry, VT",43.2269123,-72.807441
994,"Aurora, CO",39.7405111,-104.830994
995,"Amsterdam, NY",40.7587979,-73.9623427
996,"Trumbull, CT",41.2428742,-73.2006687
997,"Chandler, AZ",33.3062031,-111.8411851
998,"Lod, HM, Israel",31.5,34.75
999,"Maryland Heights, MO",38.7150511,-90.435999
1000,"Yulee, FL",27.2185284,-81.8710397
1001,"Richmond, VA, United States",37.5385087,-77.43428
1002,"Venice, CA",33.995044,-118.4668875
1003,"Aachen, NW, Germany",50.776351,6.083862
1004,"Cali, VC, Colombia",3.3124877,-76.5253506
1005,"Yavne, JM, Israel",31.7573312,35.2113065
1006,"Tewksbury, MA",42.6106479,-71.2342248
1007,"Copenhagen , SK, Denmark",56.0,10.0
1008,"Raritan, NJ",40.567181,-74.634683
1009,"Burlington, MA",42.5048167,-71.1956111
1010,"Braga, BR, Portugal",41.5624995,-8.4298677
1011,"Goa, GA, India",22.0,79.0
1012,"West Chester, OH",39.3303357,-84.408275
1013,"Orlando, FL",28.5421109,-81.3790304
1014,"Gliwice, SL, Poland",50.294113,18.6657306
1015,"Hsin-chu, TP, Taiwan",22.5513953,120.5394279
1016,"Brasilia, DF, Brazil",-15.7934036,-47.8823172
1017,"Ridgefield Park, NJ",40.8570442,-74.0215285
1018,"Centreville, VA",38.047638,-77.8169377
1019,"White Plains, NY",41.0339862,-73.7629097
1020,"Cincinnati, OH",39.1014537,-84.5124602
1021,"Quebec, QC, Canada",46.8137431,-71.2084061
1022,"Leamington, EN, United Kingdom",54.75844,-2.69531
1023,"Raffles Park, SG, Singapore",1.3343308,103.8032501
1024,"Fargo, ND",46.877229,-96.789821
1025,"Glasgow, SC, United Kingdom",55.861147,-4.2499891
1026,"Louisville, KY",38.2542376,-85.759407
1027,"Frisco, TX",33.1505998,-96.8238183
1028,"Wilsonville, OR",45.3099218,-122.76816
1029,"Bridgeport, CT",41.1670412,-73.2048348
1030,"Holon, TA, Israel",32.0159989,34.7859564
1031,"Hyderabad, TS, India",17.441105,78.3952897
1032,"Cypress, CA",33.8248235,-118.0399368
1033,"Butte, MT",46.0131505,-112.536508
1034,"Watertown, MA",42.3652226,-71.1843771
1035,"Porto, PO, Portugal",41.1210345,-8.6153293
1036,"Sophia-Antipolis, PR, France",43.6195225,7.0518158
1037,"Fort Bragg, NC",35.140311,-79.1541465
1038,"Hsin-Chu County, CN, China",32.6859913,117.7872593
1039,"Richardson, TX",32.9481789,-96.7297206
1040,"Fort Myers, FL",26.640628,-81.8723084
1041,"Ohio City, OH",41.4853003,-81.7099488
1042,"Waterloo, ON, Canada",43.4652699,-80.5222961
1043,"Bloomington, IL",40.4797828,-88.9939147
1044,"Rockford, IL",42.2713945,-89.093966
1045,"Placerville, CA",38.7296252,-120.798546
1046,"Vienna, WI, Austria",47.33333,13.33333
1047,"Reading, EN, United Kingdom",51.280121,-0.7510065
1048,"Tallinn, HA, Estonia",59.0,26.0
1049,"Brno, JM, Czech Republic",49.1922443,16.6113382
